{
  "yoshida": {
    "label": "吉田キャンパス",
    "center": [34.147757, 131.467856],
    "zoom": 17,
    "bounds": [[34.143, 131.462], [34.154, 131.475]],
    "vending_machines": [
      { "id": "y_v1", "lat": 34.14820, "lng": 131.46820, "name": "自販機（共通教育棟前）", "note": "飲料・温冷両対応" },
      { "id": "y_v2", "lat": 34.14740, "lng": 131.46920, "name": "自販機（図書館横）", "note": "飲料・軽食" },
      { "id": "y_v3", "lat": 34.14680, "lng": 131.46760, "name": "自販機（学生食堂前）", "note": "飲料" },
      { "id": "y_v4", "lat": 34.14900, "lng": 131.46950, "name": "自販機（理学部棟）", "note": "飲料・温冷両対応" },
      { "id": "y_v5", "lat": 34.14610, "lng": 131.46830, "name": "自販機（体育館近く）", "note": "飲料" }
    ],
    "trash_cans": [
      { "id": "y_t1", "lat": 34.14800, "lng": 131.46800, "name": "ごみ箱（共通教育棟入口）", "note": "可燃・不燃・ペットボトル分別" },
      { "id": "y_t2", "lat": 34.14750, "lng": 131.46900, "name": "ごみ箱（図書館入口）", "note": "可燃・ペットボトル" },
      { "id": "y_t3", "lat": 34.14670, "lng": 131.46780, "name": "ごみ箱（食堂内）", "note": "食事ごみ専用" },
      { "id": "y_t4", "lat": 34.14880, "lng": 131.46970, "name": "ごみ箱（理学部棟前）", "note": "可燃・不燃" },
      { "id": "y_t5", "lat": 34.14620, "lng": 131.46850, "name": "ごみ箱（体育館入口）", "note": "可燃のみ" }
    ]
  },
  "tokiwa": {
    "label": "常盤キャンパス",
    "center": [33.956553, 131.272345],
    "zoom": 17,
    "bounds": [[33.952, 131.267], [33.961, 131.278]],
    "vending_machines": [
      { "id": "t_v1", "lat": 33.95700, "lng": 131.27270, "name": "自販機（工学部棟前）", "note": "飲料・温冷両対応" },
      { "id": "t_v2", "lat": 33.95620, "lng": 131.27190, "name": "自販機（情報学部棟）", "note": "飲料" },
      { "id": "t_v3", "lat": 33.95580, "lng": 131.27310, "name": "自販機（食堂前）", "note": "飲料・軽食" }
    ],
    "trash_cans": [
      { "id": "t_t1", "lat": 33.95690, "lng": 131.27250, "name": "ごみ箱（工学部棟入口）", "note": "可燃・不燃・ペットボトル" },
      { "id": "t_t2", "lat": 33.95600, "lng": 131.27200, "name": "ごみ箱（情報学部棟前）", "note": "可燃のみ" },
      { "id": "t_t3", "lat": 33.95560, "lng": 131.27300, "name": "ごみ箱（食堂内）", "note": "食事ごみ専用" }
    ]
  },
  "kogushi": {
    "label": "小串キャンパス",
    "center": [33.958153, 131.24869],
    "zoom": 17,
    "bounds": [[33.954, 131.243], [33.963, 131.254]],
    "vending_machines": [
      { "id": "k_v1", "lat": 33.95860, "lng": 131.24900, "name": "自販機（医学部棟前）", "note": "飲料・温冷両対応" },
      { "id": "k_v2", "lat": 33.95780, "lng": 131.24830, "name": "自販機（附属病院入口）", "note": "飲料・軽食" },
      { "id": "k_v3", "lat": 33.95920, "lng": 131.24960, "name": "自販機（保健学科棟）", "note": "飲料" }
    ],
    "trash_cans": [
      { "id": "k_t1", "lat": 33.95850, "lng": 131.24880, "name": "ごみ箱（医学部棟入口）", "note": "可燃・不燃・ペットボトル" },
      { "id": "k_t2", "lat": 33.95790, "lng": 131.24850, "name": "ごみ箱（病院前）", "note": "感染性廃棄物は別途" },
      { "id": "k_t3", "lat": 33.95910, "lng": 131.24950, "name": "ごみ箱（保健学科棟前）", "note": "可燃のみ" }
    ]
  }
}
