{
  "vending_machines": [
    { "id": "v1", "lat": 34.18720, "lng": 131.47050, "name": "自販機（共通教育棟前）", "note": "飲料・温冷両対応" },
    { "id": "v2", "lat": 34.18650, "lng": 131.47120, "name": "自販機（図書館横）", "note": "飲料・軽食" },
    { "id": "v3", "lat": 34.18590, "lng": 131.46980, "name": "自販機（学生食堂前）", "note": "飲料" },
    { "id": "v4", "lat": 34.18800, "lng": 131.47200, "name": "自販機（工学部棟）", "note": "飲料・温冷両対応" },
    { "id": "v5", "lat": 34.18480, "lng": 131.47080, "name": "自販機（体育館近く）", "note": "飲料" }
  ],
  "trash_cans": [
    { "id": "t1", "lat": 34.18700, "lng": 131.47030, "name": "ごみ箱（共通教育棟入口）", "note": "可燃・不燃・ペットボトル分別" },
    { "id": "t2", "lat": 34.18640, "lng": 131.47150, "name": "ごみ箱（図書館入口）", "note": "可燃・ペットボトル" },
    { "id": "t3", "lat": 34.18560, "lng": 131.47000, "name": "ごみ箱（食堂内）", "note": "食事ごみ専用" },
    { "id": "t4", "lat": 34.18760, "lng": 131.47180, "name": "ごみ箱（工学部棟前）", "note": "可燃・不燃" },
    { "id": "t5", "lat": 34.18500, "lng": 131.47100, "name": "ごみ箱（体育館入口）", "note": "可燃のみ" }
  ]
}
